[{"PlaceName": "Musikverein", "PlaceCategory": "Concert Hall", "PlaceAddress": "B\u00f6sendorferstr. 12 1010 Wien \u00d6sterreich", "PlaceLat": 48.20058334025845, "PlaceWebsite": "http://www.musikverein.at", "Lon": 16.37266111111111, "PlaceDescription": "The Wiener Musikverein, commonly shortened to Musikverein, is a concert hall in the Innere Stadt borough of Vienna, Austria. It is the home of the Vienna Philharmonic orchestra.\n", "PlaceLon": 16.3723898844505, "Date": "2017:04:15", "PlaceImage": "https://upload.wikimedia.org/wikipedia/commons/thumb/0/00/Gesellschaft_der_Musikfreunde%2C_Musikvereinsplatz_1%2C_1010_Wien.JPG/200px-Gesellschaft_der_Musikfreunde%2C_Musikvereinsplatz_1%2C_1010_Wien.JPG", "Time": "11:28:55", "Lat": 48.200625, "id": "IMG_20170415_112854.jpg"}, {"PlaceName": "Schloss Sch\u00f6nbrunn", "PlaceCategory": "Palace", "PlaceAddress": "Sch\u00f6nbrunner Schlo\u00dfstr. 47 1130 Wien \u00d6sterreich", "PlaceLat": 48.1855474619552, "PlaceWebsite": "http://www.schoenbrunn.at", "Lon": 16.31392222222222, "PlaceDescription": "Sch\u00f6nbrunn Palace is a former imperial summer residence located in Vienna, Austria. The 1,441-room Baroque palace is one of the most important architectural, cultural, and historical monuments in the country. ", "PlaceLon": 16.31360249055528, "Date": "2017:04:10", "PlaceImage": "https://upload.wikimedia.org/wikipedia/commons/thumb/3/32/Wien-Sch%C3%B6nbrunn%2C_Vorderfront_des_Schlosses-2.JPG/200px-Wien-Sch%C3%B6nbrunn%2C_Vorderfront_des_Schlosses-2.JPG", "Time": "13:17:43", "Lat": 48.18545, "id": "IMG_20170410_131742.jpg"}, {"PlaceName": "Musikverein", "PlaceCategory": "Concert Hall", "PlaceAddress": "B\u00f6sendorferstr. 12 1010 Wien \u00d6sterreich", "PlaceLat": 48.20058334025845, "PlaceWebsite": "http://www.musikverein.at", "Lon": 16.372825, "PlaceDescription": "The Wiener Musikverein, commonly shortened to Musikverein, is a concert hall in the Innere Stadt borough of Vienna, Austria. It is the home of the Vienna Philharmonic orchestra.\n", "PlaceLon": 16.3723898844505, "Date": "2017:04:15", "PlaceImage": "https://upload.wikimedia.org/wikipedia/commons/thumb/0/00/Gesellschaft_der_Musikfreunde%2C_Musikvereinsplatz_1%2C_1010_Wien.JPG/200px-Gesellschaft_der_Musikfreunde%2C_Musikvereinsplatz_1%2C_1010_Wien.JPG", "Time": "11:26:07", "Lat": 48.200586111111114, "id": "IMG_20170415_112605.jpg"}, {"PlaceName": "easymeeting [Dolmetscher+Technik]", "PlaceCategory": "Office", "PlaceAddress": "Hegergasse 21 (Kleistgasse) 1030 Wien \u00d6sterreich", "PlaceLat": 48.19176523984451, "PlaceWebsite": "", "Lon": 16.38956388888889, "PlaceDescription": "", "PlaceLon": 16.389686337494098, "Date": "2017:04:15", "PlaceImage": "https://upload.wikimedia.org/wikipedia/commons/thumb/3/38/Gedenkstein_f%C3%BCr_die_deportierten_Wiener_Juden_am_Ort_des_ehemaligen_Aspangbahnhofs_in_Wien_%28Herbst_2015%29.jpg/150px-Gedenkstein_f%C3%BCr_die_deportierten_Wiener_Juden_am_Ort_des_ehemaligen_Aspangbahnhofs_in_Wien_%28Herbst_2015%29.jpg", "Time": "20:19:06", "Lat": 48.19136944444445, "id": "IMG_20170415_201906.jpg"}, {"PlaceName": "Musikverein", "PlaceCategory": "Concert Hall", "PlaceAddress": "B\u00f6sendorferstr. 12 1010 Wien \u00d6sterreich", "PlaceLat": 48.20058334025845, "PlaceWebsite": "http://www.musikverein.at", "Lon": 16.373383333333333, "PlaceDescription": "The Wiener Musikverein, commonly shortened to Musikverein, is a concert hall in the Innere Stadt borough of Vienna, Austria. It is the home of the Vienna Philharmonic orchestra.\n", "PlaceLon": 16.3723898844505, "Date": "2017:04:15", "PlaceImage": "https://upload.wikimedia.org/wikipedia/commons/thumb/0/00/Gesellschaft_der_Musikfreunde%2C_Musikvereinsplatz_1%2C_1010_Wien.JPG/200px-Gesellschaft_der_Musikfreunde%2C_Musikvereinsplatz_1%2C_1010_Wien.JPG", "Time": "11:25:40", "Lat": 48.20066111111111, "id": "IMG_20170415_112538.jpg"}, {"PlaceName": "Caf\u00e9 Central", "PlaceCategory": "Caf\u00e9", "PlaceAddress": "Herrengasse 14 (Strauchg.) 1010 Wien \u00d6sterreich", "PlaceLat": 48.21028236182674, "PlaceWebsite": "http://www.cafecentral.wien", "Lon": 16.3654595, "PlaceDescription": "Caf\u00e9 Central is a traditional Viennese caf\u00e9 located at Herrengasse 14 in the Innere Stadt first district of Vienna, Austria. The caf\u00e9 occupies the ground floor of the former Bank and Stockmarket Building, today called the Palais Ferstel after its architect Heinrich von Ferstel.", "PlaceLon": 16.365433931350708, "Date": "2017:04:15", "PlaceImage": "https://upload.wikimedia.org/wikipedia/commons/thumb/5/53/Cafe_Central_in_Vienna_interior_near_portraits.JPG/200px-Cafe_Central_in_Vienna_interior_near_portraits.JPG", "Time": "12:44:39", "Lat": 48.21036677777778, "id": "20170415_124439.jpg"}, {"PlaceName": "Schloss Sch\u00f6nbrunn", "PlaceCategory": "Palace", "PlaceAddress": "Sch\u00f6nbrunner Schlo\u00dfstr. 47 1130 Wien \u00d6sterreich", "PlaceLat": 48.1855474619552, "PlaceWebsite": "http://www.schoenbrunn.at", "Lon": 16.31392222222222, "PlaceDescription": "Sch\u00f6nbrunn Palace is a former imperial summer residence located in Vienna, Austria. The 1,441-room Baroque palace is one of the most important architectural, cultural, and historical monuments in the country. ", "PlaceLon": 16.31360249055528, "Date": "2017:04:10", "PlaceImage": "https://upload.wikimedia.org/wikipedia/commons/thumb/3/32/Wien-Sch%C3%B6nbrunn%2C_Vorderfront_des_Schlosses-2.JPG/200px-Wien-Sch%C3%B6nbrunn%2C_Vorderfront_des_Schlosses-2.JPG", "Time": "13:17:41", "Lat": 48.18545, "id": "IMG_20170410_131740.jpg"}, {"PlaceName": "Schloss Sch\u00f6nbrunn", "PlaceCategory": "Palace", "PlaceAddress": "Sch\u00f6nbrunner Schlo\u00dfstr. 47 1130 Wien \u00d6sterreich", "PlaceLat": 48.1855474619552, "PlaceWebsite": "http://www.schoenbrunn.at", "Lon": 16.31538888888889, "PlaceDescription": "Sch\u00f6nbrunn Palace is a former imperial summer residence located in Vienna, Austria. The 1,441-room Baroque palace is one of the most important architectural, cultural, and historical monuments in the country. ", "PlaceLon": 16.31360249055528, "Date": "2017:04:10", "PlaceImage": "https://upload.wikimedia.org/wikipedia/commons/thumb/3/32/Wien-Sch%C3%B6nbrunn%2C_Vorderfront_des_Schlosses-2.JPG/200px-Wien-Sch%C3%B6nbrunn%2C_Vorderfront_des_Schlosses-2.JPG", "Time": "13:55:37", "Lat": 48.184358333333336, "id": "IMG_20170410_135536.jpg"}, {"PlaceName": "Ben Gurion International Airport (TLV) (\u05e0\u05de\u05dc \u05d4\u05ea\u05e2\u05d5\u05e4\u05d4 \u05d1\u05df \u05d2\u05d5\u05e8\u05d9\u05d5\u05df)", "PlaceCategory": "Airport", "PlaceAddress": "Ha-Mamri'im Rd. \u05dc\u05d5\u05d3 70100 \u05d9\u05e9\u05e8\u05d0\u05dc", "PlaceLat": 32.00097215142805, "PlaceWebsite": "http://www.iaa.gov.il/Rashat/en-US/Airports/BenGurion/", "Lon": 34.87263055555555, "PlaceDescription": "Ben Gurion International Airport, often referred to as Natbag is Israel's main international airport and by far the busiest airport in the country. ", "PlaceLon": 34.87107881059966, "Date": "2017:04:09", "PlaceImage": "https://upload.wikimedia.org/wikipedia/commons/thumb/6/68/Israel_Batch_3_%28441%29.JPG/150px-Israel_Batch_3_%28441%29.JPG", "Time": "05:55:02", "Lat": 32.00383611111111, "id": "IMG_20170409_055502.jpg"}, {"PlaceName": "Freyung", "PlaceCategory": "Plaza", "PlaceAddress": "Freyung (Renngasse) 1010 Wien \u00d6sterreich", "PlaceLat": 48.21155457439724, "PlaceWebsite": "https://en.wikipedia.org/wiki/Freyung,_Bavaria", "Lon": 16.365466194444444, "PlaceDescription": "Freyung is a town in Bavaria, Germany, capital of the Freyung-Grafenau district. It is situated in the Bavarian Forest mountain range, near the border with Austria and the Czech Republic.", "PlaceLon": 16.365613067773676, "Date": "2017:04:15", "PlaceImage": "https://upload.wikimedia.org/wikipedia/commons/thumb/4/46/Wien_01_Austriabrunnen_06.jpg/200px-Wien_01_Austriabrunnen_06.jpg", "Time": "13:19:02", "Lat": 48.21185627777778, "id": "20170415_131902.jpg"}, {"PlaceName": "Schloss Sch\u00f6nbrunn", "PlaceCategory": "Palace", "PlaceAddress": "Sch\u00f6nbrunner Schlo\u00dfstr. 47 1130 Wien \u00d6sterreich", "PlaceLat": 48.1855474619552, "PlaceWebsite": "http://www.schoenbrunn.at", "Lon": 16.311616666666666, "PlaceDescription": "Sch\u00f6nbrunn Palace is a former imperial summer residence located in Vienna, Austria. The 1,441-room Baroque palace is one of the most important architectural, cultural, and historical monuments in the country. ", "PlaceLon": 16.31360249055528, "Date": "2017:04:10", "PlaceImage": "https://upload.wikimedia.org/wikipedia/commons/thumb/3/32/Wien-Sch%C3%B6nbrunn%2C_Vorderfront_des_Schlosses-2.JPG/200px-Wien-Sch%C3%B6nbrunn%2C_Vorderfront_des_Schlosses-2.JPG", "Time": "15:38:48", "Lat": 48.185825, "id": "IMG_20170410_153847.jpg"}, {"PlaceName": "easymeeting [Dolmetscher+Technik]", "PlaceCategory": "Office", "PlaceAddress": "Hegergasse 21 (Kleistgasse) 1030 Wien \u00d6sterreich", "PlaceLat": 48.19176523984451, "PlaceWebsite": "", "Lon": 16.38956388888889, "PlaceDescription": "", "PlaceLon": 16.389686337494098, "Date": "2017:04:15", "PlaceImage": "https://upload.wikimedia.org/wikipedia/commons/thumb/3/38/Gedenkstein_f%C3%BCr_die_deportierten_Wiener_Juden_am_Ort_des_ehemaligen_Aspangbahnhofs_in_Wien_%28Herbst_2015%29.jpg/150px-Gedenkstein_f%C3%BCr_die_deportierten_Wiener_Juden_am_Ort_des_ehemaligen_Aspangbahnhofs_in_Wien_%28Herbst_2015%29.jpg", "Time": "20:19:12", "Lat": 48.19136944444445, "id": "IMG_20170415_201911.jpg"}, {"PlaceName": "Schlosspark Sch\u00f6nbrunn", "PlaceCategory": "Park", "PlaceAddress": "Hietzinger Tor 1130 Wien \u00d6sterreich", "PlaceLat": 48.181596956831996, "PlaceWebsite": "http://www.schoenbrunn.at/en/wissenswertes/der-schlosspark.html", "Lon": 16.312811083333333, "PlaceDescription": "Vienna is the capital and largest city of Austria and one of the nine states of Austria. Vienna is Austria's primary city, with a population of about 1.8 million, and its cultural, economic, and political centre. ", "PlaceLon": 16.310577392578125, "Date": "2017:04:10", "PlaceImage": "https://upload.wikimedia.org/wikipedia/commons/thumb/c/c8/Tree-lined_avenue_at_the_Sch%C3%B6nbrunn_Palace_%286363279473%29.jpg/200px-Tree-lined_avenue_at_the_Sch%C3%B6nbrunn_Palace_%286363279473%29.jpg", "Time": "14:20:11", "Lat": 48.182702694444444, "id": "20170410_142011.jpg"}, {"PlaceName": "Schloss Sch\u00f6nbrunn", "PlaceCategory": "Palace", "PlaceAddress": "Sch\u00f6nbrunner Schlo\u00dfstr. 47 1130 Wien \u00d6sterreich", "PlaceLat": 48.1855474619552, "PlaceWebsite": "http://www.schoenbrunn.at", "Lon": 16.312883333333332, "PlaceDescription": "Sch\u00f6nbrunn Palace is a former imperial summer residence located in Vienna, Austria. The 1,441-room Baroque palace is one of the most important architectural, cultural, and historical monuments in the country. ", "PlaceLon": 16.31360249055528, "Date": "2017:04:10", "PlaceImage": "https://upload.wikimedia.org/wikipedia/commons/thumb/3/32/Wien-Sch%C3%B6nbrunn%2C_Vorderfront_des_Schlosses-2.JPG/200px-Wien-Sch%C3%B6nbrunn%2C_Vorderfront_des_Schlosses-2.JPG", "Time": "11:36:40", "Lat": 48.186077777777776, "id": "IMG_20170410_113640.jpg"}, {"PlaceName": "Schloss Sch\u00f6nbrunn", "PlaceCategory": "Palace", "PlaceAddress": "Sch\u00f6nbrunner Schlo\u00dfstr. 47 1130 Wien \u00d6sterreich", "PlaceLat": 48.1855474619552, "PlaceWebsite": "http://www.schoenbrunn.at", "Lon": 16.315322388888887, "PlaceDescription": "Sch\u00f6nbrunn Palace is a former imperial summer residence located in Vienna, Austria. The 1,441-room Baroque palace is one of the most important architectural, cultural, and historical monuments in the country. ", "PlaceLon": 16.31360249055528, "Date": "2017:04:10", "PlaceImage": "https://upload.wikimedia.org/wikipedia/commons/thumb/3/32/Wien-Sch%C3%B6nbrunn%2C_Vorderfront_des_Schlosses-2.JPG/200px-Wien-Sch%C3%B6nbrunn%2C_Vorderfront_des_Schlosses-2.JPG", "Time": "13:55:17", "Lat": 48.18429883333334, "id": "20170410_135517.jpg"}, {"PlaceName": "Musikverein", "PlaceCategory": "Concert Hall", "PlaceAddress": "B\u00f6sendorferstr. 12 1010 Wien \u00d6sterreich", "PlaceLat": 48.20058334025845, "PlaceWebsite": "http://www.musikverein.at", "Lon": 16.372825, "PlaceDescription": "The Wiener Musikverein, commonly shortened to Musikverein, is a concert hall in the Innere Stadt borough of Vienna, Austria. It is the home of the Vienna Philharmonic orchestra.\n", "PlaceLon": 16.3723898844505, "Date": "2017:04:15", "PlaceImage": "https://upload.wikimedia.org/wikipedia/commons/thumb/0/00/Gesellschaft_der_Musikfreunde%2C_Musikvereinsplatz_1%2C_1010_Wien.JPG/200px-Gesellschaft_der_Musikfreunde%2C_Musikvereinsplatz_1%2C_1010_Wien.JPG", "Time": "11:26:05", "Lat": 48.200586111111114, "id": "IMG_20170415_112604.jpg"}, {"PlaceName": "Kahlenberg", "PlaceCategory": "Mountain", "PlaceAddress": "Am Kahlenberg 1190 Wien \u00d6sterreich", "PlaceLat": 48.27445893605229, "PlaceWebsite": "https://en.wikipedia.org/wiki/Kahlenberg", "Lon": 16.337033333333334, "PlaceDescription": "The Kahlenberg is a hill located in the 19th District of Vienna, Austria.", "PlaceLon": 16.33686204929815, "Date": "2017:04:11", "PlaceImage": "https://upload.wikimedia.org/wikipedia/commons/thumb/9/99/Wien%2C_Kahlenberg%2C_Blick_in_den_Wiener_Wald.JPG/200px-Wien%2C_Kahlenberg%2C_Blick_in_den_Wiener_Wald.JPG", "Time": "13:02:36", "Lat": 48.27438055555555, "id": "PANO_20170411_130156.jpg"}, {"PlaceName": "Ben Gurion International Airport (TLV) (\u05e0\u05de\u05dc \u05d4\u05ea\u05e2\u05d5\u05e4\u05d4 \u05d1\u05df \u05d2\u05d5\u05e8\u05d9\u05d5\u05df)", "PlaceCategory": "Airport", "PlaceAddress": "Ha-Mamri'im Rd. \u05dc\u05d5\u05d3 70100 \u05d9\u05e9\u05e8\u05d0\u05dc", "PlaceLat": 32.00097215142805, "PlaceWebsite": "http://www.iaa.gov.il/Rashat/en-US/Airports/BenGurion/", "Lon": 34.872658333333334, "PlaceDescription": "Ben Gurion International Airport, often referred to as Natbag is Israel's main international airport and by far the busiest airport in the country. ", "PlaceLon": 34.87107881059966, "Date": "2017:04:09", "PlaceImage": "https://upload.wikimedia.org/wikipedia/commons/thumb/6/68/Israel_Batch_3_%28441%29.JPG/150px-Israel_Batch_3_%28441%29.JPG", "Time": "05:54:25", "Lat": 32.00386388888889, "id": "IMG_20170409_055424.jpg"}, {"PlaceName": "Schloss Sch\u00f6nbrunn", "PlaceCategory": "Palace", "PlaceAddress": "Sch\u00f6nbrunner Schlo\u00dfstr. 47 1130 Wien \u00d6sterreich", "PlaceLat": 48.1855474619552, "PlaceWebsite": "http://www.schoenbrunn.at", "Lon": 16.315322388888887, "PlaceDescription": "Sch\u00f6nbrunn Palace is a former imperial summer residence located in Vienna, Austria. The 1,441-room Baroque palace is one of the most important architectural, cultural, and historical monuments in the country. ", "PlaceLon": 16.31360249055528, "Date": "2017:04:10", "PlaceImage": "https://upload.wikimedia.org/wikipedia/commons/thumb/3/32/Wien-Sch%C3%B6nbrunn%2C_Vorderfront_des_Schlosses-2.JPG/200px-Wien-Sch%C3%B6nbrunn%2C_Vorderfront_des_Schlosses-2.JPG", "Time": "13:55:04", "Lat": 48.18429883333334, "id": "20170410_135504.jpg"}, {"PlaceName": "easymeeting [Dolmetscher+Technik]", "PlaceCategory": "Office", "PlaceAddress": "Hegergasse 21 (Kleistgasse) 1030 Wien \u00d6sterreich", "PlaceLat": 48.19176523984451, "PlaceWebsite": "", "Lon": 16.3897, "PlaceDescription": "", "PlaceLon": 16.389686337494098, "Date": "2017:04:15", "PlaceImage": "https://upload.wikimedia.org/wikipedia/commons/thumb/3/38/Gedenkstein_f%C3%BCr_die_deportierten_Wiener_Juden_am_Ort_des_ehemaligen_Aspangbahnhofs_in_Wien_%28Herbst_2015%29.jpg/150px-Gedenkstein_f%C3%BCr_die_deportierten_Wiener_Juden_am_Ort_des_ehemaligen_Aspangbahnhofs_in_Wien_%28Herbst_2015%29.jpg", "Time": "20:19:21", "Lat": 48.19130833333333, "id": "IMG_20170415_201920.jpg"}, {"PlaceName": "Schloss Sch\u00f6nbrunn", "PlaceCategory": "Palace", "PlaceAddress": "Sch\u00f6nbrunner Schlo\u00dfstr. 47 1130 Wien \u00d6sterreich", "PlaceLat": 48.1855474619552, "PlaceWebsite": "http://www.schoenbrunn.at", "Lon": 16.31538888888889, "PlaceDescription": "Sch\u00f6nbrunn Palace is a former imperial summer residence located in Vienna, Austria. The 1,441-room Baroque palace is one of the most important architectural, cultural, and historical monuments in the country. ", "PlaceLon": 16.31360249055528, "Date": "2017:04:10", "PlaceImage": "https://upload.wikimedia.org/wikipedia/commons/thumb/3/32/Wien-Sch%C3%B6nbrunn%2C_Vorderfront_des_Schlosses-2.JPG/200px-Wien-Sch%C3%B6nbrunn%2C_Vorderfront_des_Schlosses-2.JPG", "Time": "13:55:28", "Lat": 48.184358333333336, "id": "IMG_20170410_135527.jpg"}, {"PlaceName": "Caf\u00e9 Gloriette", "PlaceCategory": "Caf\u00e9", "PlaceAddress": "Schlosspark Sch\u00f6nbrunn 1130 Wien \u00d6sterreich", "PlaceLat": 48.17833629132224, "PlaceWebsite": "http://www.gloriette-cafe.at", "Lon": 16.308767444444445, "PlaceDescription": "Sch\u00f6nbrunn Palace is a former imperial summer residence located in Vienna, Austria. The 1,441-room Baroque palace is one of the most important architectural, cultural, and historical monuments in the country. ", "PlaceLon": 16.308863727356524, "Date": "2017:04:10", "PlaceImage": "https://upload.wikimedia.org/wikipedia/commons/thumb/7/76/Schloss_Sch%C3%B6nbrunn%2C_Garten_und_See.jpg/200px-Schloss_Sch%C3%B6nbrunn%2C_Garten_und_See.jpg", "Time": "14:55:25", "Lat": 48.178434277777775, "id": "20170410_145525.jpg"}, {"PlaceName": "Schloss Sch\u00f6nbrunn", "PlaceCategory": "Palace", "PlaceAddress": "Sch\u00f6nbrunner Schlo\u00dfstr. 47 1130 Wien \u00d6sterreich", "PlaceLat": 48.1855474619552, "PlaceWebsite": "http://www.schoenbrunn.at", "Lon": 16.31538888888889, "PlaceDescription": "Sch\u00f6nbrunn Palace is a former imperial summer residence located in Vienna, Austria. The 1,441-room Baroque palace is one of the most important architectural, cultural, and historical monuments in the country. ", "PlaceLon": 16.31360249055528, "Date": "2017:04:10", "PlaceImage": "https://upload.wikimedia.org/wikipedia/commons/thumb/3/32/Wien-Sch%C3%B6nbrunn%2C_Vorderfront_des_Schlosses-2.JPG/200px-Wien-Sch%C3%B6nbrunn%2C_Vorderfront_des_Schlosses-2.JPG", "Time": "13:55:29", "Lat": 48.184358333333336, "id": "IMG_20170410_135529.jpg"}, {"PlaceName": "Benediktushaus", "PlaceCategory": "Hostel", "PlaceAddress": "Herrengasse 6A 1010 Wien \u00d6sterreich", "PlaceLat": 48.21190711774354, "PlaceWebsite": "http://www.benediktushaus.at", "Lon": 16.365627361111112, "PlaceDescription": "", "PlaceLon": 16.365525632195016, "Date": "2017:04:15", "PlaceImage": "https://upload.wikimedia.org/wikipedia/commons/thumb/3/3e/Kunsthalle_-_panoramio_%286%29.jpg/200px-Kunsthalle_-_panoramio_%286%29.jpg", "Time": "13:20:25", "Lat": 48.21190322222222, "id": "20170415_132025.jpg"}, {"PlaceName": "Musikverein", "PlaceCategory": "Concert Hall", "PlaceAddress": "B\u00f6sendorferstr. 12 1010 Wien \u00d6sterreich", "PlaceLat": 48.20058334025845, "PlaceWebsite": "http://www.musikverein.at", "Lon": 16.372825, "PlaceDescription": "The Wiener Musikverein, commonly shortened to Musikverein, is a concert hall in the Innere Stadt borough of Vienna, Austria. It is the home of the Vienna Philharmonic orchestra.\n", "PlaceLon": 16.3723898844505, "Date": "2017:04:15", "PlaceImage": "https://upload.wikimedia.org/wikipedia/commons/thumb/0/00/Gesellschaft_der_Musikfreunde%2C_Musikvereinsplatz_1%2C_1010_Wien.JPG/200px-Gesellschaft_der_Musikfreunde%2C_Musikvereinsplatz_1%2C_1010_Wien.JPG", "Time": "11:28:07", "Lat": 48.200586111111114, "id": "IMG_20170415_112805.jpg"}, {"PlaceName": "Ben Gurion International Airport (TLV) (\u05e0\u05de\u05dc \u05d4\u05ea\u05e2\u05d5\u05e4\u05d4 \u05d1\u05df \u05d2\u05d5\u05e8\u05d9\u05d5\u05df)", "PlaceCategory": "Airport", "PlaceAddress": "Ha-Mamri'im Rd. \u05dc\u05d5\u05d3 70100 \u05d9\u05e9\u05e8\u05d0\u05dc", "PlaceLat": 32.00097215142805, "PlaceWebsite": "http://www.iaa.gov.il/Rashat/en-US/Airports/BenGurion/", "Lon": 34.87099444444444, "PlaceDescription": "Ben Gurion International Airport, often referred to as Natbag is Israel's main international airport and by far the busiest airport in the country. ", "PlaceLon": 34.87107881059966, "Date": "2017:04:09", "PlaceImage": "https://upload.wikimedia.org/wikipedia/commons/thumb/6/68/Israel_Batch_3_%28441%29.JPG/150px-Israel_Batch_3_%28441%29.JPG", "Time": "03:42:35", "Lat": 32.00053055555556, "id": "IMG_20170409_034233.jpg"}, {"PlaceName": "Benediktushaus", "PlaceCategory": "Hostel", "PlaceAddress": "Herrengasse 6A 1010 Wien \u00d6sterreich", "PlaceLat": 48.21190711774354, "PlaceWebsite": "http://www.benediktushaus.at", "Lon": 16.36540886111111, "PlaceDescription": "", "PlaceLon": 16.365525632195016, "Date": "2017:04:15", "PlaceImage": "https://upload.wikimedia.org/wikipedia/commons/thumb/3/3e/Kunsthalle_-_panoramio_%286%29.jpg/200px-Kunsthalle_-_panoramio_%286%29.jpg", "Time": "13:18:41", "Lat": 48.21188863888889, "id": "20170415_131841.jpg"}, {"PlaceName": "easymeeting [Dolmetscher+Technik]", "PlaceCategory": "Office", "PlaceAddress": "Hegergasse 21 (Kleistgasse) 1030 Wien \u00d6sterreich", "PlaceLat": 48.19176523984451, "PlaceWebsite": "", "Lon": 16.38956388888889, "PlaceDescription": "", "PlaceLon": 16.389686337494098, "Date": "2017:04:15", "PlaceImage": "https://upload.wikimedia.org/wikipedia/commons/thumb/3/38/Gedenkstein_f%C3%BCr_die_deportierten_Wiener_Juden_am_Ort_des_ehemaligen_Aspangbahnhofs_in_Wien_%28Herbst_2015%29.jpg/150px-Gedenkstein_f%C3%BCr_die_deportierten_Wiener_Juden_am_Ort_des_ehemaligen_Aspangbahnhofs_in_Wien_%28Herbst_2015%29.jpg", "Time": "20:19:40", "Lat": 48.19136944444445, "id": "IMG_20170415_201940.jpg"}, {"PlaceName": "Schloss Sch\u00f6nbrunn", "PlaceCategory": "Palace", "PlaceAddress": "Sch\u00f6nbrunner Schlo\u00dfstr. 47 1130 Wien \u00d6sterreich", "PlaceLat": 48.1855474619552, "PlaceWebsite": "http://www.schoenbrunn.at", "Lon": 16.31538888888889, "PlaceDescription": "Sch\u00f6nbrunn Palace is a former imperial summer residence located in Vienna, Austria. The 1,441-room Baroque palace is one of the most important architectural, cultural, and historical monuments in the country. ", "PlaceLon": 16.31360249055528, "Date": "2017:04:10", "PlaceImage": "https://upload.wikimedia.org/wikipedia/commons/thumb/3/32/Wien-Sch%C3%B6nbrunn%2C_Vorderfront_des_Schlosses-2.JPG/200px-Wien-Sch%C3%B6nbrunn%2C_Vorderfront_des_Schlosses-2.JPG", "Time": "13:55:24", "Lat": 48.184358333333336, "id": "IMG_20170410_135523_1.jpg"}, {"PlaceName": "Vienna International Airport (VIE) (Flughafen Wien-Schwechat)", "PlaceCategory": "Airport", "PlaceAddress": "Abflugstr. 1300 Schwechat \u00d6sterreich", "PlaceLat": 48.11956147908972, "PlaceWebsite": "http://www.viennaairport.at", "Lon": 16.561263888888888, "PlaceDescription": "Vienna International Airport is the international airport of Vienna, the capital of Austria, located in Schwechat, 18 km southeast of central Vienna and 57 km west of Bratislava. ", "PlaceLon": 16.56238127024066, "Date": "2017:04:15", "PlaceImage": "https://upload.wikimedia.org/wikipedia/commons/thumb/6/67/13-05-24-wien-RalfR-281.jpg/200px-13-05-24-wien-RalfR-281.jpg", "Time": "22:08:05", "Lat": 48.118452777777776, "id": "IMG_20170415_220803.jpg"}, {"PlaceName": "Ben Gurion International Airport (TLV) (\u05e0\u05de\u05dc \u05d4\u05ea\u05e2\u05d5\u05e4\u05d4 \u05d1\u05df \u05d2\u05d5\u05e8\u05d9\u05d5\u05df)", "PlaceCategory": "Airport", "PlaceAddress": "Ha-Mamri'im Rd. \u05dc\u05d5\u05d3 70100 \u05d9\u05e9\u05e8\u05d0\u05dc", "PlaceLat": 32.00097215142805, "PlaceWebsite": "http://www.iaa.gov.il/Rashat/en-US/Airports/BenGurion/", "Lon": 34.87263055555555, "PlaceDescription": "Ben Gurion International Airport, often referred to as Natbag is Israel's main international airport and by far the busiest airport in the country. ", "PlaceLon": 34.87107881059966, "Date": "2017:04:09", "PlaceImage": "https://upload.wikimedia.org/wikipedia/commons/thumb/6/68/Israel_Batch_3_%28441%29.JPG/150px-Israel_Batch_3_%28441%29.JPG", "Time": "05:55:26", "Lat": 32.00383611111111, "id": "IMG_20170409_055522.jpg"}, {"PlaceName": "Musikverein", "PlaceCategory": "Concert Hall", "PlaceAddress": "B\u00f6sendorferstr. 12 1010 Wien \u00d6sterreich", "PlaceLat": 48.20058334025845, "PlaceWebsite": "http://www.musikverein.at", "Lon": 16.372825, "PlaceDescription": "The Wiener Musikverein, commonly shortened to Musikverein, is a concert hall in the Innere Stadt borough of Vienna, Austria. It is the home of the Vienna Philharmonic orchestra.\n", "PlaceLon": 16.3723898844505, "Date": "2017:04:15", "PlaceImage": "https://upload.wikimedia.org/wikipedia/commons/thumb/0/00/Gesellschaft_der_Musikfreunde%2C_Musikvereinsplatz_1%2C_1010_Wien.JPG/200px-Gesellschaft_der_Musikfreunde%2C_Musikvereinsplatz_1%2C_1010_Wien.JPG", "Time": "11:28:03", "Lat": 48.200586111111114, "id": "IMG_20170415_112802.jpg"}, {"PlaceName": "Caf\u00e9 Gloriette", "PlaceCategory": "Caf\u00e9", "PlaceAddress": "Schlosspark Sch\u00f6nbrunn 1130 Wien \u00d6sterreich", "PlaceLat": 48.17833629132224, "PlaceWebsite": "http://www.gloriette-cafe.at", "Lon": 16.309045, "PlaceDescription": "Sch\u00f6nbrunn Palace is a former imperial summer residence located in Vienna, Austria. The 1,441-room Baroque palace is one of the most important architectural, cultural, and historical monuments in the country. ", "PlaceLon": 16.308863727356524, "Date": "2017:04:10", "PlaceImage": "https://upload.wikimedia.org/wikipedia/commons/thumb/7/76/Schloss_Sch%C3%B6nbrunn%2C_Garten_und_See.jpg/200px-Schloss_Sch%C3%B6nbrunn%2C_Garten_und_See.jpg", "Time": "14:53:14", "Lat": 48.17849091666667, "id": "20170410_145314.jpg"}, {"PlaceName": "Musikverein", "PlaceCategory": "Concert Hall", "PlaceAddress": "B\u00f6sendorferstr. 12 1010 Wien \u00d6sterreich", "PlaceLat": 48.20058334025845, "PlaceWebsite": "http://www.musikverein.at", "Lon": 16.373202777777777, "PlaceDescription": "The Wiener Musikverein, commonly shortened to Musikverein, is a concert hall in the Innere Stadt borough of Vienna, Austria. It is the home of the Vienna Philharmonic orchestra.\n", "PlaceLon": 16.3723898844505, "Date": "2017:04:15", "PlaceImage": "https://upload.wikimedia.org/wikipedia/commons/thumb/0/00/Gesellschaft_der_Musikfreunde%2C_Musikvereinsplatz_1%2C_1010_Wien.JPG/200px-Gesellschaft_der_Musikfreunde%2C_Musikvereinsplatz_1%2C_1010_Wien.JPG", "Time": "11:25:23", "Lat": 48.200627777777775, "id": "IMG_20170415_112521.jpg"}, {"PlaceName": "Benediktushaus", "PlaceCategory": "Hostel", "PlaceAddress": "Herrengasse 6A 1010 Wien \u00d6sterreich", "PlaceLat": 48.21190711774354, "PlaceWebsite": "http://www.benediktushaus.at", "Lon": 16.365392916666668, "PlaceDescription": "", "PlaceLon": 16.365525632195016, "Date": "2017:04:15", "PlaceImage": "https://upload.wikimedia.org/wikipedia/commons/thumb/3/3e/Kunsthalle_-_panoramio_%286%29.jpg/200px-Kunsthalle_-_panoramio_%286%29.jpg", "Time": "13:18:33", "Lat": 48.211874944444446, "id": "20170415_131833.jpg"}, {"PlaceName": "Caf\u00e9 Central", "PlaceCategory": "Caf\u00e9", "PlaceAddress": "Herrengasse 14 (Strauchg.) 1010 Wien \u00d6sterreich", "PlaceLat": 48.21028236182674, "PlaceWebsite": "http://www.cafecentral.wien", "Lon": 16.3654595, "PlaceDescription": "Caf\u00e9 Central is a traditional Viennese caf\u00e9 located at Herrengasse 14 in the Innere Stadt first district of Vienna, Austria. The caf\u00e9 occupies the ground floor of the former Bank and Stockmarket Building, today called the Palais Ferstel after its architect Heinrich von Ferstel.", "PlaceLon": 16.365433931350708, "Date": "2017:04:15", "PlaceImage": "https://upload.wikimedia.org/wikipedia/commons/thumb/5/53/Cafe_Central_in_Vienna_interior_near_portraits.JPG/200px-Cafe_Central_in_Vienna_interior_near_portraits.JPG", "Time": "12:44:46", "Lat": 48.21036677777778, "id": "20170415_124446.jpg"}, {"PlaceName": "Caf\u00e9 Gloriette", "PlaceCategory": "Caf\u00e9", "PlaceAddress": "Schlosspark Sch\u00f6nbrunn 1130 Wien \u00d6sterreich", "PlaceLat": 48.17833629132224, "PlaceWebsite": "http://www.gloriette-cafe.at", "Lon": 16.308776722222223, "PlaceDescription": "Sch\u00f6nbrunn Palace is a former imperial summer residence located in Vienna, Austria. The 1,441-room Baroque palace is one of the most important architectural, cultural, and historical monuments in the country. ", "PlaceLon": 16.308863727356524, "Date": "2017:04:10", "PlaceImage": "https://upload.wikimedia.org/wikipedia/commons/thumb/7/76/Schloss_Sch%C3%B6nbrunn%2C_Garten_und_See.jpg/200px-Schloss_Sch%C3%B6nbrunn%2C_Garten_und_See.jpg", "Time": "14:55:30", "Lat": 48.178458194444445, "id": "20170410_145530.jpg"}, {"PlaceName": "Musikverein", "PlaceCategory": "Concert Hall", "PlaceAddress": "B\u00f6sendorferstr. 12 1010 Wien \u00d6sterreich", "PlaceLat": 48.20058334025845, "PlaceWebsite": "http://www.musikverein.at", "Lon": 16.373383333333333, "PlaceDescription": "The Wiener Musikverein, commonly shortened to Musikverein, is a concert hall in the Innere Stadt borough of Vienna, Austria. It is the home of the Vienna Philharmonic orchestra.\n", "PlaceLon": 16.3723898844505, "Date": "2017:04:15", "PlaceImage": "https://upload.wikimedia.org/wikipedia/commons/thumb/0/00/Gesellschaft_der_Musikfreunde%2C_Musikvereinsplatz_1%2C_1010_Wien.JPG/200px-Gesellschaft_der_Musikfreunde%2C_Musikvereinsplatz_1%2C_1010_Wien.JPG", "Time": "11:25:32", "Lat": 48.20066111111111, "id": "IMG_20170415_112531.jpg"}, {"PlaceName": "Benediktushaus", "PlaceCategory": "Hostel", "PlaceAddress": "Herrengasse 6A 1010 Wien \u00d6sterreich", "PlaceLat": 48.21190711774354, "PlaceWebsite": "http://www.benediktushaus.at", "Lon": 16.36550036111111, "PlaceDescription": "", "PlaceLon": 16.365525632195016, "Date": "2017:04:15", "PlaceImage": "https://upload.wikimedia.org/wikipedia/commons/thumb/3/3e/Kunsthalle_-_panoramio_%286%29.jpg/200px-Kunsthalle_-_panoramio_%286%29.jpg", "Time": "13:19:16", "Lat": 48.21184219444444, "id": "20170415_131917.jpg"}]