[{"PlaceName": "Gare de Gen\u00e8ve Cornavin", "PlaceCategory": "Train Station", "PlaceAddress": "Place de Cornavin 7 1201 Gen\u00e8ve Suisse", "PlaceLat": 46.21035632676544, "PlaceWebsite": "https://www.sbb.ch", "Lon": 6.141244444444444, "PlaceDescription": "Gen\u00e8ve is Geneva's main railway station, located in the centre of the city. The immediate area surrounding it is known as Cornavin; both names can be used interchangeably to refer to each other.\n", "PlaceLon": 6.142483037523846, "Date": "2016:12:08", "PlaceImage": "https://upload.wikimedia.org/wikipedia/commons/thumb/c/c2/Geneva_-_train_station.jpg/200px-Geneva_-_train_station.jpg", "Time": "20:24:38", "Lat": 46.20874166666667, "id": "IMG_20161208_202437.jpg"}, {"PlaceName": "Lake Geneva", "PlaceCategory": "Lake", "PlaceAddress": "Gen\u00e8ve Suisse", "PlaceLat": 46.209125131128246, "PlaceWebsite": "https://en.wikipedia.org/wiki/Lake_Geneva", "Lon": 6.150472222222223, "PlaceDescription": "Lake Geneva is a lake on the north side of the Alps, shared between Switzerland and France. It is one of the largest lakes in Western Europe and the largest on the course of the Rh\u00f4ne. ", "PlaceLon": 6.1506235019767965, "Date": "2016:12:10", "PlaceImage": "https://upload.wikimedia.org/wikipedia/commons/thumb/4/46/Geneve_Quai_du_Mont-Blanc_2011-09-24_08_34_51_PICT4821.JPG/200px-Geneve_Quai_du_Mont-Blanc_2011-09-24_08_34_51_PICT4821.JPG", "Time": "11:28:49", "Lat": 46.20909722222222, "id": "IMG_20161210_112848.jpg"}, {"PlaceName": "A\u00e9roport de Gen\u00e8ve Cointrin (GVA) (A\u00e9roport international de Gen\u00e8ve)", "PlaceCategory": "Airport", "PlaceAddress": "Route de l'A\u00e9roport 1218 Grand-Saconnex Suisse", "PlaceLat": 46.230874000713186, "PlaceWebsite": "http://www.gva.ch", "Lon": 6.108413888888889, "PlaceDescription": "", "PlaceLon": 6.107674694005288, "Date": "2016:12:08", "PlaceImage": "https://upload.wikimedia.org/wikipedia/commons/thumb/9/9f/Hermes_scarves_at_Zurich_airport.JPG/164px-Hermes_scarves_at_Zurich_airport.JPG", "Time": "09:53:12", "Lat": 46.23426111111111, "id": "IMG_20161208_095312.jpg"}, {"PlaceName": "Caf\u00e9 du Soleil", "PlaceCategory": "Caf\u00e9", "PlaceAddress": "Pl. du Petit-Saconnex 6 1209 Gen\u00e8ve Suisse", "PlaceLat": 46.2230766, "PlaceWebsite": "http://www.cafedusoleil.ch", "Lon": 6.128094444444445, "PlaceDescription": "", "PlaceLon": 6.127776, "Date": "2016:12:10", "PlaceImage": "https://upload.wikimedia.org/wikipedia/commons/thumb/b/b4/Parc_de_Bud%C3%A9_-_panoramio_%281%29.jpg/200px-Parc_de_Bud%C3%A9_-_panoramio_%281%29.jpg", "Time": "18:51:27", "Lat": 46.22306388888889, "id": "IMG_20161210_185125.jpg"}, {"PlaceName": "Tartares&Co", "PlaceCategory": "French Restaurant", "PlaceAddress": "James Fazy 10 (Rue Bautte) Gen\u00e8ve Suisse", "PlaceLat": 46.207591, "PlaceWebsite": "http://tartaresandco.ch", "Lon": 6.140211111111111, "PlaceDescription": "", "PlaceLon": 6.139983, "Date": "2016:12:08", "PlaceImage": "https://upload.wikimedia.org/wikipedia/commons/thumb/4/4a/Papillotes_de_Lyon.JPG/200px-Papillotes_de_Lyon.JPG", "Time": "21:07:26", "Lat": 46.20759722222222, "id": "IMG_20161208_210724.jpg"}, {"PlaceName": "Brasserie des Halles de L'\u00eele", "PlaceCategory": "Bar", "PlaceAddress": "Place de l'Ile 1 1204 Gen\u00e8ve Suisse", "PlaceLat": 46.2046141116077, "PlaceWebsite": "http://www.brasseriedeshallesdelile.ch", "Lon": 6.141122222222222, "PlaceDescription": "", "PlaceLon": 6.141314506530762, "Date": "2016:12:09", "PlaceImage": "https://upload.wikimedia.org/wikipedia/commons/thumb/6/6c/Geneve_sous_la_neige_-_panoramio_%2814%29.jpg/200px-Geneve_sous_la_neige_-_panoramio_%2814%29.jpg", "Time": "07:52:20", "Lat": 46.204233333333335, "id": "IMG_20161209_075219.jpg"}, {"PlaceName": "Broken Chair", "PlaceCategory": "Outdoor Sculpture", "PlaceAddress": "Place des Nations (Avenue de la Paix) 1202 Gen\u00e8ve Suisse", "PlaceLat": 46.22253657207699, "PlaceWebsite": "https://en.wikipedia.org/wiki/Broken_Chair", "Lon": 6.138947222222222, "PlaceDescription": "Broken Chair is a monumental sculpture in wood by the Swiss artist Daniel Berset, constructed by the carpenter Louis Gen\u00e8ve. It is constructed of 5.5 tons of wood and is 12 metres high.\n", "PlaceLon": 6.138834365178951, "Date": "2016:12:10", "PlaceImage": "https://upload.wikimedia.org/wikipedia/commons/thumb/e/ee/FREE_TAMIL_EELAM_-_%28STOPPT_DEN_KRIEG_IN_SRI_LANKA%29_-_panoramio.jpg/133px-FREE_TAMIL_EELAM_-_%28STOPPT_DEN_KRIEG_IN_SRI_LANKA%29_-_panoramio.jpg", "Time": "10:27:13", "Lat": 46.22262777777778, "id": "IMG_20161210_102712.jpg"}, {"PlaceName": "Kfar Galim", "PlaceCategory": "General Travel", "PlaceAddress": "Kfar Galim \u05d9\u05e9\u05e8\u05d0\u05dc", "PlaceLat": 32.766099843351526, "PlaceWebsite": "https://en.wikipedia.org/wiki/Kfar_Galim", "Lon": 34.95531111111111, "PlaceDescription": "Kfar Galim is a boarding school and youth village in northern Israel. Located near Tirat Carmel, it falls under the jurisdiction of Hof HaCarmel Regional Council. In 2015 it had a population of 294.\n", "PlaceLon": 34.95800765813622, "Date": "2016:12:08", "PlaceImage": "", "Time": "01:55:56", "Lat": 32.77191388888889, "id": "IMG_20161208_015556.jpg"}, {"PlaceName": "Ben Gurion International Airport (TLV) (\u05e0\u05de\u05dc \u05d4\u05ea\u05e2\u05d5\u05e4\u05d4 \u05d1\u05df \u05d2\u05d5\u05e8\u05d9\u05d5\u05df)", "PlaceCategory": "Airport", "PlaceAddress": "Ha-Mamri'im Rd. \u05dc\u05d5\u05d3 70100 \u05d9\u05e9\u05e8\u05d0\u05dc", "PlaceLat": 32.00097215142805, "PlaceWebsite": "http://www.iaa.gov.il/Rashat/en-US/Airports/BenGurion/", "Lon": 34.87575277777778, "PlaceDescription": "Ben Gurion International Airport, often referred to as Natbag is Israel's main international airport and by far the busiest airport in the country. ", "PlaceLon": 34.87107881059966, "Date": "2016:12:08", "PlaceImage": "https://upload.wikimedia.org/wikipedia/commons/thumb/6/68/Israel_Batch_3_%28441%29.JPG/150px-Israel_Batch_3_%28441%29.JPG", "Time": "05:46:57", "Lat": 32.003375, "id": "IMG_20161208_054657.jpg"}, {"PlaceName": "Ben Gurion International Airport (TLV) (\u05e0\u05de\u05dc \u05d4\u05ea\u05e2\u05d5\u05e4\u05d4 \u05d1\u05df \u05d2\u05d5\u05e8\u05d9\u05d5\u05df)", "PlaceCategory": "Airport", "PlaceAddress": "Ha-Mamri'im Rd. \u05dc\u05d5\u05d3 70100 \u05d9\u05e9\u05e8\u05d0\u05dc", "PlaceLat": 32.00097215142805, "PlaceWebsite": "http://www.iaa.gov.il/Rashat/en-US/Airports/BenGurion/", "Lon": 34.87280555555556, "PlaceDescription": "Ben Gurion International Airport, often referred to as Natbag is Israel's main international airport and by far the busiest airport in the country. ", "PlaceLon": 34.87107881059966, "Date": "2016:12:08", "PlaceImage": "https://upload.wikimedia.org/wikipedia/commons/thumb/6/68/Israel_Batch_3_%28441%29.JPG/150px-Israel_Batch_3_%28441%29.JPG", "Time": "05:28:56", "Lat": 32.00378055555556, "id": "IMG_20161208_052856.jpg"}, {"PlaceName": "Jardin Anglais", "PlaceCategory": "Park", "PlaceAddress": "Quai du G\u00e9n\u00e9ral Guisan 1204 Gen\u00e8ve Suisse", "PlaceLat": 46.20453578862523, "PlaceWebsite": "https://en.wikipedia.org/wiki/Jardin_Anglais", "Lon": 6.151633333333334, "PlaceDescription": "The Jardin anglais is an urban park in Geneva, Switzerland, situated at the location of an ancient harbor and a wood.\nThe park was created in 1855. ", "PlaceLon": 6.151532292643535, "Date": "2016:12:10", "PlaceImage": "https://upload.wikimedia.org/wikipedia/commons/thumb/c/ce/Geneve_Jet_d%27eau_2011-09-13_13_53_53_PICT4762.JPG/123px-Geneve_Jet_d%27eau_2011-09-13_13_53_53_PICT4762.JPG", "Time": "11:31:47", "Lat": 46.20503333333333, "id": "IMG_20161210_113146.jpg"}, {"PlaceName": "Gare de Gen\u00e8ve Cornavin", "PlaceCategory": "Train Station", "PlaceAddress": "Place de Cornavin 7 1201 Gen\u00e8ve Suisse", "PlaceLat": 46.21035632676544, "PlaceWebsite": "https://www.sbb.ch", "Lon": 6.141244444444444, "PlaceDescription": "Gen\u00e8ve is Geneva's main railway station, located in the centre of the city. The immediate area surrounding it is known as Cornavin; both names can be used interchangeably to refer to each other.\n", "PlaceLon": 6.142483037523846, "Date": "2016:12:08", "PlaceImage": "https://upload.wikimedia.org/wikipedia/commons/thumb/c/c2/Geneva_-_train_station.jpg/200px-Geneva_-_train_station.jpg", "Time": "20:54:59", "Lat": 46.20874166666667, "id": "IMG_20161208_205458.jpg"}, {"PlaceName": "Lake Geneva", "PlaceCategory": "Lake", "PlaceAddress": "Gen\u00e8ve Suisse", "PlaceLat": 46.209125131128246, "PlaceWebsite": "https://en.wikipedia.org/wiki/Lake_Geneva", "Lon": 6.150733333333333, "PlaceDescription": "Lake Geneva is a lake on the north side of the Alps, shared between Switzerland and France. It is one of the largest lakes in Western Europe and the largest on the course of the Rh\u00f4ne. ", "PlaceLon": 6.1506235019767965, "Date": "2016:12:10", "PlaceImage": "https://upload.wikimedia.org/wikipedia/commons/thumb/4/46/Geneve_Quai_du_Mont-Blanc_2011-09-24_08_34_51_PICT4821.JPG/200px-Geneve_Quai_du_Mont-Blanc_2011-09-24_08_34_51_PICT4821.JPG", "Time": "10:29:44", "Lat": 46.20902777777778, "id": "IMG_00006_BURST20161210112949.jpg"}, {"PlaceName": "Holy Cow!", "PlaceCategory": "Burger Joint", "PlaceAddress": "Rue de Carouge 14 1205 Gen\u00e8ve Suisse", "PlaceLat": 46.19670708080346, "PlaceWebsite": "http://holycow.ch", "Lon": 6.143055555555556, "PlaceDescription": "Due to the multiple benefits from cattle, there are varying beliefs about cattle in societies and religions. In some regions, especially Nepal and most states of India, the slaughter of cattle is prohibited and their meat may be taboo.\n", "PlaceLon": 6.143015310947821, "Date": "2016:12:08", "PlaceImage": "https://upload.wikimedia.org/wikipedia/commons/thumb/4/42/Gen%C3%A8ve_tram_715%2B306_on_Rue_de_Carouge_in_1978.jpg/200px-Gen%C3%A8ve_tram_715%2B306_on_Rue_de_Carouge_in_1978.jpg", "Time": "13:27:01", "Lat": 46.19669444444445, "id": "IMG_20161208_132701.jpg"}, {"PlaceName": "Caf\u00e9 des Augustins", "PlaceCategory": "Bar", "PlaceAddress": "Place des Augustins Gen\u00e8ve Suisse", "PlaceLat": 46.19109205057492, "PlaceWebsite": "", "Lon": 6.145036111111111, "PlaceDescription": "", "PlaceLon": 6.144391646578764, "Date": "2016:12:08", "PlaceImage": "https://upload.wikimedia.org/wikipedia/commons/thumb/5/57/A_waiting_room.JPG/150px-A_waiting_room.JPG", "Time": "18:58:16", "Lat": 46.19106388888889, "id": "IMG_20161208_185815.jpg"}, {"PlaceName": "Patek Philippe Museum", "PlaceCategory": "Museum", "PlaceAddress": "Rue des Vieux-Grenadiers 7 1205 Gen\u00e8ve Suisse", "PlaceLat": 46.19855173424314, "PlaceWebsite": "http://www.patekmuseum.com", "Lon": 6.138355555555556, "PlaceDescription": "", "PlaceLon": 6.138421121177297, "Date": "2016:12:08", "PlaceImage": "https://upload.wikimedia.org/wikipedia/commons/thumb/7/74/Geneve_mamco_2011-09-24_11_24_55_PICT4880.JPG/200px-Geneve_mamco_2011-09-24_11_24_55_PICT4880.JPG", "Time": "14:34:39", "Lat": 46.198483333333336, "id": "IMG_20161208_143437.jpg"}, {"PlaceName": "Port d'Evian", "PlaceCategory": "Harbor / Marina", "PlaceAddress": "Quai Paul L\u00e9ger (Place du Port) 74500 \u00c9vian-les-Bains France", "PlaceLat": 46.401528318937615, "PlaceWebsite": "", "Lon": 6.594888888888889, "PlaceDescription": "", "PlaceLon": 6.594648109534556, "Date": "2016:12:09", "PlaceImage": "https://upload.wikimedia.org/wikipedia/commons/thumb/1/19/2009-08-27_Lake_Geneva_467.JPG/200px-2009-08-27_Lake_Geneva_467.JPG", "Time": "13:09:05", "Lat": 46.40093888888889, "id": "IMG_20161209_130904.jpg"}, {"PlaceName": "Caf\u00e9 des Augustins", "PlaceCategory": "Bar", "PlaceAddress": "Place des Augustins Gen\u00e8ve Suisse", "PlaceLat": 46.19109205057492, "PlaceWebsite": "", "Lon": 6.145036111111111, "PlaceDescription": "", "PlaceLon": 6.144391646578764, "Date": "2016:12:08", "PlaceImage": "https://upload.wikimedia.org/wikipedia/commons/thumb/5/57/A_waiting_room.JPG/150px-A_waiting_room.JPG", "Time": "12:20:12", "Lat": 46.19106388888889, "id": "IMG_20161208_122011.jpg"}, {"PlaceName": "World Trade Organisation / Organisation Mondiale du Commerce", "PlaceCategory": "Government Building", "PlaceAddress": "Rue de Lausanne 154 1202 Gen\u00e8ve Suisse", "PlaceLat": 46.2243148687533, "PlaceWebsite": "http://www.wto.int/", "Lon": 6.14805, "PlaceDescription": "", "PlaceLon": 6.149339365756808, "Date": "2016:12:10", "PlaceImage": "https://upload.wikimedia.org/wikipedia/commons/thumb/d/de/With_Dr._Tim_Yeend%2C_WTO_Chief_of_Cabinet..jpg/200px-With_Dr._Tim_Yeend%2C_WTO_Chief_of_Cabinet..jpg", "Time": "10:44:37", "Lat": 46.22407777777778, "id": "IMG_20161210_104437.jpg"}, {"PlaceName": "Place de Bel-Air", "PlaceCategory": "Plaza", "PlaceAddress": "Place de Bel-Air Gen\u00e8ve Suisse", "PlaceLat": 46.20439768088146, "PlaceWebsite": "", "Lon": 6.143455555555556, "PlaceDescription": "", "PlaceLon": 6.14357723827302, "Date": "2016:12:08", "PlaceImage": "https://upload.wikimedia.org/wikipedia/commons/thumb/2/2a/Quai_de_l%27Ile_-_panoramio.jpg/200px-Quai_de_l%27Ile_-_panoramio.jpg", "Time": "10:57:42", "Lat": 46.20456388888889, "id": "IMG_20161208_105742.jpg"}, {"PlaceName": "Caf\u00e9 du Soleil", "PlaceCategory": "Caf\u00e9", "PlaceAddress": "Pl. du Petit-Saconnex 6 1209 Gen\u00e8ve Suisse", "PlaceLat": 46.2230766, "PlaceWebsite": "http://www.cafedusoleil.ch", "Lon": 6.128094444444445, "PlaceDescription": "", "PlaceLon": 6.127776, "Date": "2016:12:10", "PlaceImage": "https://upload.wikimedia.org/wikipedia/commons/thumb/b/b4/Parc_de_Bud%C3%A9_-_panoramio_%281%29.jpg/200px-Parc_de_Bud%C3%A9_-_panoramio_%281%29.jpg", "Time": "18:51:34", "Lat": 46.22306388888889, "id": "IMG_20161210_185133.jpg"}, {"PlaceName": "Gare de Gen\u00e8ve Cornavin", "PlaceCategory": "Train Station", "PlaceAddress": "Place de Cornavin 7 1201 Gen\u00e8ve Suisse", "PlaceLat": 46.21035632676544, "PlaceWebsite": "https://www.sbb.ch", "Lon": 6.141244444444444, "PlaceDescription": "Gen\u00e8ve is Geneva's main railway station, located in the centre of the city. The immediate area surrounding it is known as Cornavin; both names can be used interchangeably to refer to each other.\n", "PlaceLon": 6.142483037523846, "Date": "2016:12:08", "PlaceImage": "https://upload.wikimedia.org/wikipedia/commons/thumb/c/c2/Geneva_-_train_station.jpg/200px-Geneva_-_train_station.jpg", "Time": "20:24:29", "Lat": 46.20874166666667, "id": "IMG_20161208_202427.jpg"}, {"PlaceName": "CERN", "PlaceCategory": "Medical Lab", "PlaceAddress": "Route de Meyrin 385 (Road Niels Bohr) 1217 Meyrin Suisse", "PlaceLat": 46.23311810864612, "PlaceWebsite": "http://www.cern.ch", "Lon": 6.055908333333333, "PlaceDescription": "The Super Proton Synchrotron is a particle accelerator of the synchrotron type at CERN. It is housed in a circular tunnel, 6.9 kilometres in circumference, straddling the border of France and Switzerland near Geneva, Switzerland.", "PlaceLon": 6.054879340970029, "Date": "2016:12:10", "PlaceImage": "https://upload.wikimedia.org/wikipedia/commons/thumb/b/b3/CERN_Reseption_Entrance.JPG/200px-CERN_Reseption_Entrance.JPG", "Time": "15:06:09", "Lat": 46.23356111111111, "id": "IMG_20161210_150609.jpg"}, {"PlaceName": "Hotel Beau-Rivage", "PlaceCategory": "Hotel", "PlaceAddress": "Quai du Mont-Blanc 13 1201 Gen\u00e8ve Suisse", "PlaceLat": 46.20907350704344, "PlaceWebsite": "https://en.wikipedia.org/wiki/Beau-Rivage_Geneva", "Lon": 6.150169444444445, "PlaceDescription": "Beau-Rivage Geneva is a five-star luxury hotel, founded in 1865 by the Mayer family. It is located in Geneva, in Switzerland. A lot of hotels in the world have the name \"Beau-Rivage\", but this hotel has remained independent since its creation and is still a family-owned business. ", "PlaceLon": 6.14961078882782, "Date": "2016:12:10", "PlaceImage": "https://upload.wikimedia.org/wikipedia/commons/thumb/f/f7/H%C3%B4tel_Beau-Rivage.jpg/200px-H%C3%B4tel_Beau-Rivage.jpg", "Time": "11:29:25", "Lat": 46.20878611111111, "id": "IMG_20161210_112924.jpg"}, {"PlaceName": "Gare de Lausanne", "PlaceCategory": "Train Station", "PlaceAddress": "Place de la Gare 1003 Lausanne Suisse", "PlaceLat": 46.516763740864306, "PlaceWebsite": "https://www.sbb.ch", "Lon": 6.629286111111111, "PlaceDescription": "Dijon or Dijon-Ville is a railway station located in Dijon, C\u00f4te-d'Or, eastern France. The station was opened in 1849 and is located on the Paris\u2013Marseille railway, Dijon-Is-sur-Tille railway, Dijon-Saint-Amour railway and Dijon-Vallorbe railway. ", "PlaceLon": 6.629108088085999, "Date": "2016:12:09", "PlaceImage": "https://upload.wikimedia.org/wikipedia/commons/thumb/a/a3/Gare_de_Gen%C3%A8ve_-_panoramio.jpg/200px-Gare_de_Gen%C3%A8ve_-_panoramio.jpg", "Time": "11:49:19", "Lat": 46.517377777777774, "id": "IMG_20161209_114919.jpg"}, {"PlaceName": "Lake Geneva", "PlaceCategory": "Lake", "PlaceAddress": "Gen\u00e8ve Suisse", "PlaceLat": 46.209125131128246, "PlaceWebsite": "https://en.wikipedia.org/wiki/Lake_Geneva", "Lon": 6.151047222222222, "PlaceDescription": "Lake Geneva is a lake on the north side of the Alps, shared between Switzerland and France. It is one of the largest lakes in Western Europe and the largest on the course of the Rh\u00f4ne. ", "PlaceLon": 6.1506235019767965, "Date": "2016:12:10", "PlaceImage": "https://upload.wikimedia.org/wikipedia/commons/thumb/4/46/Geneve_Quai_du_Mont-Blanc_2011-09-24_08_34_51_PICT4821.JPG/200px-Geneve_Quai_du_Mont-Blanc_2011-09-24_08_34_51_PICT4821.JPG", "Time": "11:32:08", "Lat": 46.20879722222222, "id": "IMG_20161210_113208.jpg"}, {"PlaceName": "Caf\u00e9 du Soleil", "PlaceCategory": "Caf\u00e9", "PlaceAddress": "Pl. du Petit-Saconnex 6 1209 Gen\u00e8ve Suisse", "PlaceLat": 46.2230766, "PlaceWebsite": "http://www.cafedusoleil.ch", "Lon": 6.128094444444445, "PlaceDescription": "", "PlaceLon": 6.127776, "Date": "2016:12:10", "PlaceImage": "https://upload.wikimedia.org/wikipedia/commons/thumb/b/b4/Parc_de_Bud%C3%A9_-_panoramio_%281%29.jpg/200px-Parc_de_Bud%C3%A9_-_panoramio_%281%29.jpg", "Time": "18:51:30", "Lat": 46.22306388888889, "id": "IMG_20161210_185129.jpg"}, {"PlaceName": "Conservatoire et Jardin Botaniques", "PlaceCategory": "Other Great Outdoors", "PlaceAddress": "Chemin de l'Imp\u00e9ratrice 1 (Rue de Lausanne) 1292 Chamb\u00e9sy Suisse", "PlaceLat": 46.22563404905424, "PlaceWebsite": "https://en.wikipedia.org/wiki/Conservatory_and_Botanical_Garden_of_the_City_of_Geneva", "Lon": 6.144675, "PlaceDescription": "The Conservatory and Botanical Garden of the city of Geneva is a museum and an institution of the City of Geneva.", "PlaceLon": 6.1470193905907085, "Date": "2016:12:10", "PlaceImage": "https://upload.wikimedia.org/wikipedia/commons/thumb/3/33/Geneva_Botanical_Garden_2.jpg/200px-Geneva_Botanical_Garden_2.jpg", "Time": "10:40:07", "Lat": 46.22341111111111, "id": "IMG_20161210_104006.jpg"}, {"PlaceName": "Caf\u00e9 des Augustins", "PlaceCategory": "Bar", "PlaceAddress": "Place des Augustins Gen\u00e8ve Suisse", "PlaceLat": 46.19109205057492, "PlaceWebsite": "", "Lon": 6.145036111111111, "PlaceDescription": "", "PlaceLon": 6.144391646578764, "Date": "2016:12:08", "PlaceImage": "https://upload.wikimedia.org/wikipedia/commons/thumb/5/57/A_waiting_room.JPG/150px-A_waiting_room.JPG", "Time": "22:14:49", "Lat": 46.19106388888889, "id": "IMG_20161208_221448.jpg"}, {"PlaceName": "Zaino", "PlaceCategory": "Italian Restaurant", "PlaceAddress": "France", "PlaceLat": 46.401197, "PlaceWebsite": "", "Lon": 6.594888888888889, "PlaceDescription": "", "PlaceLon": 6.594654, "Date": "2016:12:09", "PlaceImage": "https://upload.wikimedia.org/wikipedia/commons/thumb/1/19/2009-08-27_Lake_Geneva_467.JPG/200px-2009-08-27_Lake_Geneva_467.JPG", "Time": "13:09:11", "Lat": 46.400930555555554, "id": "IMG_20161209_130910.jpg"}]